{
  "copyright": "2015-12-30T01:37:19.0337199+01:00",
  "messages": [
    {
      "id": 1579747,
      "priority": 3,
      "createddate": "2015-12-29T18:59:36.673+01:00",
      "title": "Varberg-Uddevalla",
      "exactlocation": "",
      "description": "18-22/1 dagligen klockan 9:45-15:00 ersätts tågen med buss i båda riktningar på sträckan Borås-Herrljunga. Bussar avgår enligt särskilda tidtabeller. Räkna med något längre restid. Kontakta ditt tågbolag före mer information om tidtabeller och övrigt om din resa. Orsaken är kontakledningsarbeten på sträckan.",
      "latitude": 57.816602737272717,
      "longitude": 12.531209119340534,
      "category": 1,
      "subcategory": "Tåg"
    },
    {
      "id": 1570716,
      "priority": 4,
      "createddate": "2015-12-21T10:23:35.51+01:00",
      "title": "Blodbussen",
      "exactlocation": "Mölnlycke Kulturhus",
      "description": "28-29/12 12:30-18:00, 30/12 08.30 - 15.00",
      "latitude": 57.720913773353963,
      "longitude": 11.84294788499219,
      "category": 3,
      "subcategory": "Hälsa och sjukvård"
    },
    {
      "id": 1407249,
      "priority": 5,
      "createddate": "2015-07-20T10:57:37.24+02:00",
      "title": "Rv 55 Uppsala",
      "exactlocation": "Tpl Tycho Hedéns väg",
      "description": "Arbete med att bygga en ny järnvägsbro över Tycho Hedéns väg. Begränsad höjd är 3,2 meter.",
      "latitude": 59.879184722900391,
      "longitude": 17.634679794311523,
      "category": 0,
      "subcategory": "Vägarbete"
    },
    {
      "id": 1483398,
      "priority": 3,
      "createddate": "2015-11-18T08:09:10.287+01:00",
      "title": "Lv 282 Uppsala Almungevägen",
      "exactlocation": "Mellan brandstationen och E4",
      "description": "Arbete på vägen. Risk för köbildning även ut på E4 vid trafikplats Kumla.",
      "latitude": 59.846316445205872,
      "longitude": 17.720024407748333,
      "category": 0,
      "subcategory": "Vägarbete"
    },
    {
      "id": 1553125,
      "priority": 4,
      "createddate": "2015-11-26T15:23:34.65+01:00",
      "title": "Mora",
      "exactlocation": "Fridhemsgatan",
      "description": "Avstängd mellan Moragatan och Oxbergsvägen. Omledning uppskyltad.",
      "latitude": 61.002901588480924,
      "longitude": 14.535675134854968,
      "category": 0,
      "subcategory": "Vägarbete"
    },
    {
      "id": 1551339,
      "priority": 3,
      "createddate": "2015-12-11T09:42:41.427+01:00",
      "title": "Lv 864 Danholn-Sundborn",
      "exactlocation": "Överbackavägen",
      "description": "Avstängt från 26/11 ca kl. 11:00. Pga arbeten med vatten och avlopp.",
      "latitude": 60.623680114746094,
      "longitude": 15.79430103302002,
      "category": 0,
      "subcategory": "Vägarbete"
    },
    {
      "id": 1575210,
      "priority": 3,
      "createddate": "2015-12-28T07:33:32.047+01:00",
      "title": "Backe",
      "exactlocation": "",
      "description": "Backe hälsocentral är stängd i mellandagarna. 28-30 december hänvisas patienter till Strömsunds hälsocentral.",
      "latitude": 63.812759803832634,
      "longitude": 16.40054449331307,
      "category": 3,
      "subcategory": "Hälsa och sjukvård"
    },
    {
      "id": 1497351,
      "priority": 3,
      "createddate": "2015-12-09T14:46:23.383+01:00",
      "title": "Lv 120 Delary–Älmhult",
      "exactlocation": "",
      "description": "Begränsad framkomlighet förbi arbetet. Endast ett körfält öppet förbi så trafiken får köra växelvis. Risk för långa köer. ",
      "latitude": 56.549530029296875,
      "longitude": 14.026314735412598,
      "category": 0,
      "subcategory": "Vägarbete"
    },
    {
      "id": 1513371,
      "priority": 3,
      "createddate": "2015-11-26T11:27:40.523+01:00",
      "title": "E22 Kalmar–Karlskrona",
      "exactlocation": "tpl Ljungbyholm–Hossmo i riktning mot Karlskrona",
      "description": "Begränsad framkomlighet. Körfält avstängt vid arbetsplats för byggnation av nya väg E22",
      "latitude": 56.638080596923828,
      "longitude": 16.222171783447266,
      "category": 0,
      "subcategory": "Vägarbete"
    },
    {
      "id": 1508092,
      "priority": 5,
      "createddate": "2015-10-06T05:53:20.37+02:00",
      "title": "Lv 241 från Sunne-Lerdalen",
      "exactlocation": "",
      "description": "Beläggningsarbete.",
      "latitude": 59.839916229248047,
      "longitude": 13.188547134399414,
      "category": 0,
      "subcategory": "Vägarbete"
    },
    {
      "id": 1579904,
      "priority": 3,
      "createddate": "2015-12-30T00:41:31.873+01:00",
      "title": "E16 Valbo-Gävle",
      "exactlocation": "avfarten mot E4 norrgående",
      "description": "Bil kört av vägen",
      "latitude": 60.670122777281961,
      "longitude": 17.092436452562275,
      "category": 0,
      "subcategory": "Trafikstörning"
    },
    {
      "id": 1574389,
      "priority": 3,
      "createddate": "2015-12-28T18:32:02.84+01:00",
      "title": "Stockholms län",
      "exactlocation": "",
      "description": "Blodbussar tisdag 29/12: Södertälje Stortorget, Haninge Centrum Källvägen.",
      "latitude": 59.321777576813048,
      "longitude": 17.997000126836259,
      "category": 3,
      "subcategory": "Hälsa och sjukvård"
    },
    {
      "id": 1559533,
      "priority": 5,
      "createddate": "2015-12-28T06:14:36.187+01:00",
      "title": "Lv 541 Hassel-Lucksta",
      "exactlocation": "",
      "description": "Byte av vägtrumma. Kortare omledning kan förekomma under vissa perioder",
      "latitude": 62.273338317871094,
      "longitude": 16.879863739013672,
      "category": 0,
      "subcategory": "Vägarbete"
    },
    {
      "id": 1544476,
      "priority": 3,
      "createddate": "2015-11-16T11:09:05.113+01:00",
      "title": "Rv 55 Strängnäs-Enköping",
      "exactlocation": "Hjulstabron-cirkulationsplats Enögla riktning mot Uppsala",
      "description": "Dikning. Rörligt arbete.",
      "latitude": 59.518310546875,
      "longitude": 17.004179000854492,
      "category": 0,
      "subcategory": "Vägarbete"
    },
    {
      "id": 1557249,
      "priority": 3,
      "createddate": "2015-12-02T05:50:07.503+01:00",
      "title": "E4 Nyköping-Norrköping",
      "exactlocation": "Trafikplats Gammelsta (128), i riktning mot Norrköping.",
      "description": "Ett körfält avstängt. ",
      "latitude": 58.753318786621094,
      "longitude": 16.547788619995117,
      "category": 0,
      "subcategory": "Vägarbete"
    },
    {
      "id": 1518662,
      "priority": 3,
      "createddate": "2015-12-21T09:07:49.02+01:00",
      "title": "Rv 69 Rättvik-Bjursås",
      "exactlocation": "Norra Bertilsbo-Gärdebyn",
      "description": "Ett körfält avstängt. Kabelarbete vid sidan om vägen samt tryckning under vägen.",
      "latitude": 60.825801849365234,
      "longitude": 15.248318672180176,
      "category": 0,
      "subcategory": "Vägarbete"
    },
    {
      "id": 1579906,
      "priority": 3,
      "createddate": "2015-12-30T00:35:10.897+01:00",
      "title": "Göteborg",
      "exactlocation": "Älvsborgsbron",
      "description": "Ett körfält öppet mot Hisingen. Vägarbete under natten.",
      "latitude": 57.687953948974609,
      "longitude": 11.90357780456543,
      "category": 0,
      "subcategory": "Vägarbete"
    },
    {
      "id": 1571907,
      "priority": 4,
      "createddate": "2015-12-29T11:00:57.893+01:00",
      "title": "Nässjö–Vetlanda–Nässjö",
      "exactlocation": "Krösatågen",
      "description": "Flera avgångar inställda och ersatta av buss vardagar från 18 december till 7 januari.",
      "latitude": 57.65196717930656,
      "longitude": 14.705582167122488,
      "category": 1,
      "subcategory": "Tåg"
    },
    {
      "id": 1579910,
      "priority": 3,
      "createddate": "2015-12-30T00:49:35.98+01:00",
      "title": "Rv 46 Skövde-Falköping",
      "exactlocation": "norr om Stenstorp",
      "description": "Flera älgar på/vid vägen",
      "latitude": 58.282556735184663,
      "longitude": 13.76123669759933,
      "category": 0,
      "subcategory": "Trafikstörning"
    },
    {
      "id": 1568482,
      "priority": 3,
      "createddate": "2015-12-30T00:03:56.053+01:00",
      "title": "Röduppleden",
      "exactlocation": "",
      "description": "Färjan är inställd. Isvägen öppen för fordon upp till 2 tons bruttovikt.",
      "latitude": 66.485633850097656,
      "longitude": 22.777805328369141,
      "category": 1,
      "subcategory": "Färja"
    },
    {
      "id": 1559487,
      "priority": 4,
      "createddate": "2015-12-21T05:45:44.917+01:00",
      "title": "Karlskrona",
      "exactlocation": "",
      "description": "Förändringar i sophämtningen under 2016. Hushåll med tömning jämn vecka får soptunnan tömnd ojämn vecka och tvärtom under 2016.",
      "latitude": 56.193036564534367,
      "longitude": 15.620761091222263,
      "category": 3,
      "subcategory": "Övrigt"
    },
    {
      "id": 1575054,
      "priority": 4,
      "createddate": "2015-12-27T12:00:48.64+01:00",
      "title": "Malmö–Köpenhamn",
      "exactlocation": "Köpenhamns flygplats, Kastrup",
      "description": "Inga Öresundståg stannar på hållplatsen mellan 22:30 27/12 och 04:20 30/12. . Tågen går annan väg. Resenärer hänvisas till ersättningsbussar.",
      "latitude": 55.565239819923555,
      "longitude": 12.897839790859853,
      "category": 1,
      "subcategory": "Tåg"
    },
    {
      "id": 1567592,
      "priority": 3,
      "createddate": "2015-12-22T11:42:08.413+01:00",
      "title": "E6 Göteborg",
      "exactlocation": "Av-/påfart från Bällskärsvägen, Tingstadsmotet, södergående",
      "description": "Körfält stängs av i samband med schaktningsarbeten.",
      "latitude": 57.732082366943359,
      "longitude": 11.983940124511719,
      "category": 0,
      "subcategory": "Vägarbete"
    },
    {
      "id": 1406672,
      "priority": 3,
      "createddate": "2015-12-11T17:28:08.547+01:00",
      "title": "E20 Partille–Lerum",
      "exactlocation": "Jerikotunneln–Fräntorpsmotet(78)",
      "description": "Körfält stängs av nattetid på grund av asfalteringsarbete.",
      "latitude": 57.74127197265625,
      "longitude": 12.185935974121094,
      "category": 0,
      "subcategory": "Vägarbete"
    },
    {
      "id": 1567569,
      "priority": 3,
      "createddate": "2015-12-11T16:50:30.527+01:00",
      "title": "E6 vid Ringömotet",
      "exactlocation": "Södergående",
      "description": "Körfältsavstängning i samband med ombyggnadsarbete.\n",
      "latitude": 57.729965209960938,
      "longitude": 11.982913970947266,
      "category": 0,
      "subcategory": "Vägarbete"
    },
    {
      "id": 1557082,
      "priority": 3,
      "createddate": "2015-11-30T15:06:09.05+01:00",
      "title": "E16 Kungsgården-Sandviken",
      "exactlocation": "Mellan tpl Åsen och tpl Sandviken Västra i riktning mot Sandviken",
      "description": "Montering av fundament för elstolpar.",
      "latitude": 60.609512329101562,
      "longitude": 16.647851943969727,
      "category": 0,
      "subcategory": "Vägarbete"
    },
    {
      "id": 1546988,
      "priority": 3,
      "createddate": "2015-11-19T07:04:56.053+01:00",
      "title": "Rv 61 Åmotsfors-Charlottenberg",
      "exactlocation": "Dalen till Solhem ",
      "description": "Ombyggnad till 2+1 väg.",
      "latitude": 59.784858703613281,
      "longitude": 12.354942321777344,
      "category": 0,
      "subcategory": "Vägarbete"
    },
    {
      "id": 1578668,
      "priority": 3,
      "createddate": "2015-12-28T07:46:41.983+01:00",
      "title": "Lv 155 Färjeläge-Hjuvik ",
      "exactlocation": "",
      "description": "Ombyggnation av färjeläget vid Lilla Varholmen i riktning mot Göteborg.",
      "latitude": 57.708538055419922,
      "longitude": 11.702760696411133,
      "category": 0,
      "subcategory": "Vägarbete"
    },
    {
      "id": 1579905,
      "priority": 3,
      "createddate": "2015-12-30T00:36:48.74+01:00",
      "title": "Pendeltåg",
      "exactlocation": "Stockholm-Nynäshamn/Södertälje",
      "description": "Reducerad hastighet pga obehöriga i spårområdet.",
      "latitude": 59.209990289292016,
      "longitude": 17.945359700202456,
      "category": 1,
      "subcategory": "Tåg"
    },
    {
      "id": 1505778,
      "priority": 4,
      "createddate": "2015-12-28T06:34:33.147+01:00",
      "title": "Jämtlands län",
      "exactlocation": "  ",
      "description": "Risk för frosthalka, i övrigt mestadels vinterväglag i stort sett hela länet. ",
      "latitude": 63.4809952,
      "longitude": 14.326333,
      "category": 0,
      "subcategory": "Halkvarning"
    },
    {
      "id": 1487662,
      "priority": 4,
      "createddate": "2015-12-29T05:50:14.553+01:00",
      "title": "Dalarnas län",
      "exactlocation": "",
      "description": "Risk för frosthalka.",
      "latitude": 60.7344055,
      "longitude": 14.7284212,
      "category": 0,
      "subcategory": "Halkvarning"
    },
    {
      "id": 1487657,
      "priority": 4,
      "createddate": "2015-12-29T05:51:11.527+01:00",
      "title": "Gävleborgs län",
      "exactlocation": "",
      "description": "Risk för frosthalka.",
      "latitude": 61.4704742,
      "longitude": 16.70279,
      "category": 0,
      "subcategory": "Halkvarning"
    },
    {
      "id": 1487819,
      "priority": 4,
      "createddate": "2015-12-29T00:12:02.063+01:00",
      "title": "Värmlands län",
      "exactlocation": "",
      "description": "Risk för halka då våta vägar återfryser.",
      "latitude": 59.8638344,
      "longitude": 13.2893448,
      "category": 0,
      "subcategory": "Halkvarning"
    },
    {
      "id": 1511542,
      "priority": 3,
      "createddate": "2015-12-30T00:05:34.32+01:00",
      "title": "Örebro län",
      "exactlocation": "",
      "description": "Risk för halt väglag under natten pga frostutfällning och/eller att våta vägar återfryser.",
      "latitude": 59.4352722,
      "longitude": 14.7333231,
      "category": 0,
      "subcategory": "Halkvarning"
    },
    {
      "id": 1510367,
      "priority": 4,
      "createddate": "2015-12-24T07:39:36.377+01:00",
      "title": "Kronobergs län",
      "exactlocation": "",
      "description": "Risk för lokal frosthalka. Våta och fuktiga vägar med runt en plusgrad i vägytan. ",
      "latitude": 56.7490959,
      "longitude": 14.3933315,
      "category": 0,
      "subcategory": "Halkvarning"
    },
    {
      "id": 1578160,
      "priority": 4,
      "createddate": "2015-12-29T15:03:44.613+01:00",
      "title": "Västra Skåne ",
      "exactlocation": "",
      "description": "SMHI varning klass 1 för höga flöden. Flödena i en del små och medelstora vattendrag i västra delen av Skåne län är fortsatt höga.",
      "latitude": 55.927329140443923,
      "longitude": 13.250837307389949,
      "category": 3,
      "subcategory": "Väder"
    },
    {
      "id": 1505782,
      "priority": 4,
      "createddate": "2015-12-28T09:29:45.913+01:00",
      "title": "Västerbottens län",
      "exactlocation": "",
      "description": "Större delen av länet har vinterväglag med lokalt packad snö och isiga vägar. Vid kusten fläckvis is och vått. ",
      "latitude": 64.9181442,
      "longitude": 18.94519,
      "category": 0,
      "subcategory": "Halkvarning"
    },
    {
      "id": 1579213,
      "priority": 4,
      "createddate": "2015-12-29T23:59:37.31+01:00",
      "title": "Västerbottens län",
      "exactlocation": "Södra Lapplandsfjällen",
      "description": "Sydlig hård eller mycket hård vind, 14-18 m/s, på kalfjället och på nordsidan av fjällen.",
      "latitude": 65.555297308369077,
      "longitude": 15.443004638762611,
      "category": 3,
      "subcategory": "Väder"
    },
    {
      "id": 1579211,
      "priority": 4,
      "createddate": "2015-12-30T00:00:04.047+01:00",
      "title": "Jämtlands län",
      "exactlocation": "Jämtlandsfjällen",
      "description": "Sydlig hård eller mycket hård vind, 15-20 m/s, på kalfjället och på nordsidan av fjällen.",
      "latitude": 63.697548642717983,
      "longitude": 13.563567654947638,
      "category": 3,
      "subcategory": "Väder"
    },
    {
      "id": 1572392,
      "priority": 4,
      "createddate": "2015-12-29T12:56:18.523+01:00",
      "title": "Jönköpings län",
      "exactlocation": "",
      "description": "Tider för tömning av soptunnor ändras under jul- och nyårsveckorna i många kommuner. Ställ ut kärlet ett par dagar tidigare än normalt.",
      "latitude": 57.784113096924415,
      "longitude": 14.229775078687332,
      "category": 3,
      "subcategory": "Miljö"
    },
    {
      "id": 1546358,
      "priority": 5,
      "createddate": "2015-11-29T19:42:10.847+01:00",
      "title": "Midvägen Östersund",
      "exactlocation": "",
      "description": "Till följd av ökad obehörig trafik vid Lugnvikskolan stängs Midvägen av för trafik mellan 07.00-17.00. Under den tiden får endast fordon i linjetrafik samt fordon med rörelsehindrad person som innehar parkeringstillstånd färdas på vägen.",
      "latitude": 63.205564994924174,
      "longitude": 14.630246761853261,
      "category": 0,
      "subcategory": "Trafikstörning"
    },
    {
      "id": 1562926,
      "priority": 3,
      "createddate": "2015-12-09T06:16:34.46+01:00",
      "title": "Rv 55 Uppsala–Enköping",
      "exactlocation": "Litslena - tpl Annelund (143) i riktning mot Strängnäs ",
      "description": "Trafiken leds med signal eller vakt. ",
      "latitude": 59.664558410644531,
      "longitude": 17.266510009765625,
      "category": 0,
      "subcategory": "Vägarbete"
    },
    {
      "id": 1579914,
      "priority": 3,
      "createddate": "2015-12-30T01:22:51.427+01:00",
      "title": "E18 Enköpingsvägen",
      "exactlocation": "Tpl Hjulsta, mot Bålsta",
      "description": "Trafikolycka",
      "latitude": 59.400232500653118,
      "longitude": 17.885795411059913,
      "category": 0,
      "subcategory": "Trafikolycka"
    },
    {
      "id": 1579908,
      "priority": 3,
      "createddate": "2015-12-30T01:21:42.6+01:00",
      "title": "E4 Gävle-Söderhamn",
      "exactlocation": "Högbacka-Tönnebro",
      "description": "Trafikolycka. Bärgare på plats.",
      "latitude": 61.030648801511141,
      "longitude": 16.974229941781619,
      "category": 0,
      "subcategory": "Trafikolycka"
    },
    {
      "id": 1559467,
      "priority": 4,
      "createddate": "2015-12-16T05:45:46.493+01:00",
      "title": "Hässleholms kommun",
      "exactlocation": "",
      "description": "Under jul- och nyårshelgen kan sophämtningen avvika från det normala. Sätt därför ut kärl och säckar två dagar innan ordinarie hämtning och låt stå tills de blir tömda.\n",
      "latitude": 56.161145514975054,
      "longitude": 13.759663742875192,
      "category": 3,
      "subcategory": "Övrigt"
    },
    {
      "id": 1578616,
      "priority": 3,
      "createddate": "2015-12-29T16:57:49.843+01:00",
      "title": "Roslagsbanan",
      "exactlocation": "Viggbyholm-Stockholm Östra",
      "description": "Under mellandagarna går inte snabbtågen  kl. 08:00, 08:20 och 08:31.",
      "latitude": 59.3483450328682,
      "longitude": 18.067705549405623,
      "category": 1,
      "subcategory": "Tåg"
    },
    {
      "id": 1570305,
      "priority": 3,
      "createddate": "2015-12-26T14:44:38.54+01:00",
      "title": "Uppsala",
      "exactlocation": "Stationsgatan/Strandbogatan",
      "description": "Vägarbete, stängt för gående och cyklister. ",
      "latitude": 59.856440282979328,
      "longitude": 17.653565478384916,
      "category": 0,
      "subcategory": "Vägarbete"
    },
    {
      "id": 1542094,
      "priority": 3,
      "createddate": "2015-11-27T11:10:42.497+01:00",
      "title": "Borås",
      "exactlocation": "Åsbogatan, mellan Kungsleden och Allégatan",
      "description": "Vägen avstängd pga byggnation av bussfil.",
      "latitude": 57.719811893090274,
      "longitude": 12.943832949851924,
      "category": 0,
      "subcategory": "Vägarbete"
    },
    {
      "id": 1537497,
      "priority": 5,
      "createddate": "2015-11-29T19:41:46.417+01:00",
      "title": "Lv 1019 vid Storulvån båda riktningarna",
      "exactlocation": "",
      "description": "Vägen till Storulvån är vinterstängd mellan 1/11 - 31/1.",
      "latitude": 63.215427398681641,
      "longitude": 12.406817436218262,
      "category": 0,
      "subcategory": "Trafikstörning"
    },
    {
      "id": 1558430,
      "priority": 4,
      "createddate": "2015-12-04T20:36:02.383+01:00",
      "title": "Lv 531 Funäsdalen-Ljungdalen ",
      "exactlocation": "Från Mittådalen till Ljungdalen ",
      "description": "Vägen över Flatruet är nattstängd mellan klockan 22:00-06:00 under perioden 1 December-15 April. Vid besvärligt väder kan vägen stängas med kort varsel även under annan tid.",
      "latitude": 62.775653839111328,
      "longitude": 12.765754699707031,
      "category": 0,
      "subcategory": "Trafikstörning"
    },
    {
      "id": 1420175,
      "priority": 4,
      "createddate": "2015-12-26T06:10:50.387+01:00",
      "title": "Norrbottens län",
      "exactlocation": "  ",
      "description": "Väglaget i länet består övervägande av vinterväglag i form av lös eller packad snö och isiga vägbanor, närmast kusten modd och våta vägar.",
      "latitude": 66.74946,
      "longitude": 21.38291,
      "category": 0,
      "subcategory": "Halkvarning"
    },
    {
      "id": 1558549,
      "priority": 4,
      "createddate": "2015-12-02T15:02:41.027+01:00",
      "title": "Umeå, Umeälven",
      "exactlocation": "Vid järnvägsbron mellan Bergsboda och Stor-Sandskär",
      "description": "Isränna bryts så fort isen lägger sig. Isrännan kvarstår december ut.  ",
      "latitude": 63.767076320421921,
      "longitude": 20.325018599481211,
      "category": 3,
      "subcategory": "Övrigt"
    },
    {
      "id": 1551498,
      "priority": 4,
      "createddate": "2015-12-23T17:09:32.957+01:00",
      "title": "Västberga",
      "exactlocation": "Västberga allé bron över järnvägen ",
      "description": "Omlagd körväg för linje 165, linje 143 dras in på sträckan Liljeholmen-Älvsjö stn.  Nya linje145 trafikerar sträckan Telefonplan-Västberga-Årstaberg-(Liljeholmen). ",
      "latitude": 59.288072367712566,
      "longitude": 18.01951159520339,
      "category": 1,
      "subcategory": "Buss"
    },
    {
      "id": 1563801,
      "priority": 3,
      "createddate": "2015-12-29T05:55:25.653+01:00",
      "title": "Örebro-Borlänge/Falun/Gävle/Mjölby/Lindesberg",
      "exactlocation": "Frövi",
      "description": "Stopp för tågtrafik mellan Skinnskatteberg och Örebro. Ingen prognos för när problemet kan vara avhjälpt. Orsaken är ett urspårat godståg vid Frövi. ",
      "latitude": 59.465029844507576,
      "longitude": 15.366200419183267,
      "category": 1,
      "subcategory": "Tåg"
    },
    {
      "id": 1564995,
      "priority": 4,
      "createddate": "2015-12-23T17:09:44.233+01:00",
      "title": "Västberga-Älvsjö",
      "exactlocation": "Västberga allé bron som går över järnvägen och Åbyvägen",
      "description": "Bron stängd för renovering från 14 december. Kommer att vara avstängd för biltrafik till sommaren 2017. ",
      "latitude": 59.288883209228516,
      "longitude": 18.018430709838867,
      "category": 0,
      "subcategory": "Vägarbete"
    },
    {
      "id": 1574877,
      "priority": 4,
      "createddate": "2015-12-22T06:00:40.267+01:00",
      "title": "Varbergs och Falkenbergs kommuner",
      "exactlocation": "",
      "description": "Under jul och nyårshelgerna sker hämtning av hushållsavfallet på flera håll en dag tidigare än normalt. Under vecka 53 sker ingen hämtning.",
      "latitude": 57.063973976240149,
      "longitude": 12.35287189317641,
      "category": 3,
      "subcategory": "Miljö"
    },
    {
      "id": 1380130,
      "priority": 3,
      "createddate": "2015-12-11T17:21:31.697+01:00",
      "title": "Lv190 Gråbovägen",
      "exactlocation": "Bergsjökrysset",
      "description": "Rondell byggs i korsningen Gråbovägen/Bergsjövägen som en del i den större ombyggnaden av Gråbovägen. ",
      "latitude": 57.7848526286231,
      "longitude": 12.088115548634436,
      "category": 0,
      "subcategory": "Vägarbete"
    },
    {
      "id": 1436158,
      "priority": 3,
      "createddate": "2015-10-15T13:34:05.153+02:00",
      "title": "Lv 824/ lv 1067 Gäddede-Klimpfjäll",
      "exactlocation": "Stekenjokkvägen mellan Leipikvattnet och Klimpfjäll",
      "description": "Vägen är nu stängd för säsongen. Öppnas åter för trafik 6 juni 2016.",
      "latitude": 64.848213195800781,
      "longitude": 14.175168991088867,
      "category": 0,
      "subcategory": "Vägarbete"
    }
  ]
}
